{
"type": "FeatureCollection",
"crs": { "type": "name", "properties": { "name": "urn:ogc:def:crs:OGC:1.3:CRS84" } },

"features": [
{ "type": "Feature", "properties": { "A32_001": 32201, "A32_002": "出雲市", "A32_003": "河南中学校", "address": "出雲市神門町1331", "x": 132.70948400, "y": 35.33585600, "label": "河南中" }, "geometry": { "type": "Point", "coordinates": [ 132.70948400, 35.33585600 ] } },
{ "type": "Feature", "properties": { "A32_001": 32201, "A32_002": "出雲市", "A32_003": "湖陵中学校", "address": "出雲市湖陵町三部1183", "x": 132.67487400, "y": 35.31528900, "label": "湖陵中" }, "geometry": { "type": "Point", "coordinates": [ 132.67487400, 35.31528900 ] } },
{ "type": "Feature", "properties": { "A32_001": 32201, "A32_002": "出雲市", "A32_003": "向陽中学校", "address": "出雲市多久町1380-15", "x": 132.85455119, "y": 35.44384146, "label": "向陽中" }, "geometry": { "type": "Point", "coordinates": [ 132.85455119, 35.44384146 ] } },
{ "type": "Feature", "properties": { "A32_001": 32201, "A32_002": "出雲市", "A32_003": "佐田中学校", "address": "出雲市佐田町八幡原200", "x": 132.69860400, "y": 35.25804900, "label": "佐田中" }, "geometry": { "type": "Point", "coordinates": [ 132.69860400, 35.25804900 ] } },
{ "type": "Feature", "properties": { "A32_001": 32201, "A32_002": "出雲市", "A32_003": "多伎中学校", "address": "出雲市多伎町多岐785", "x": 132.63059400, "y": 35.28426000, "label": "多伎中" }, "geometry": { "type": "Point", "coordinates": [ 132.63059400, 35.28426000 ] } },
{ "type": "Feature", "properties": { "A32_001": 32201, "A32_002": "出雲市", "A32_003": "大社中学校", "address": "出雲市大社町杵築南1330", "x": 132.68502500, "y": 35.39219100, "label": "大社中" }, "geometry": { "type": "Point", "coordinates": [ 132.68502500, 35.39219100 ] } },
{ "type": "Feature", "properties": { "A32_001": 32201, "A32_002": "出雲市", "A32_003": "第一中学校", "address": "出雲市大津町2214", "x": 132.77114300, "y": 35.36382700, "label": "第一中" }, "geometry": { "type": "Point", "coordinates": [ 132.77114300, 35.36382700 ] } },
{ "type": "Feature", "properties": { "A32_001": 32201, "A32_002": "出雲市", "A32_003": "第三中学校", "address": "出雲市大塚町1184", "x": 132.75008900, "y": 35.38304600, "label": "第三中" }, "geometry": { "type": "Point", "coordinates": [ 132.75008900, 35.38304600 ] } },
{ "type": "Feature", "properties": { "A32_001": 32201, "A32_002": "出雲市", "A32_003": "第二中学校", "address": "出雲市塩冶町1501", "x": 132.75028400, "y": 35.36157700, "label": "第二中" }, "geometry": { "type": "Point", "coordinates": [ 132.75028400, 35.36157700 ] } },
{ "type": "Feature", "properties": { "A32_001": 32201, "A32_002": "出雲市", "A32_003": "南中学校", "address": "出雲市朝山町978", "x": 132.77478300, "y": 35.32452700, "label": "南中" }, "geometry": { "type": "Point", "coordinates": [ 132.77478300, 35.32452700 ] } },
{ "type": "Feature", "properties": { "A32_001": 32201, "A32_002": "出雲市", "A32_003": "斐川西中学校", "address": "出雲市直江町4083", "x": 132.81338800, "y": 35.39415700, "label": "斐川西中" }, "geometry": { "type": "Point", "coordinates": [ 132.81338800, 35.39415700 ] } },
{ "type": "Feature", "properties": { "A32_001": 32201, "A32_002": "出雲市", "A32_003": "斐川東中学校", "address": "出雲市沖洲660", "x": 132.85118900, "y": 35.40068500, "label": "斐川東中" }, "geometry": { "type": "Point", "coordinates": [ 132.85118900, 35.40068500 ] } },
{ "type": "Feature", "properties": { "A32_001": 32201, "A32_002": "出雲市", "A32_003": "浜山中学校", "address": "出雲市松寄下町1674", "x": 132.71106600, "y": 35.36338100, "label": "浜山中" }, "geometry": { "type": "Point", "coordinates": [ 132.71106600, 35.36338100 ] } },
{ "type": "Feature", "properties": { "A32_001": 32201, "A32_002": "出雲市", "A32_003": "平田中学校", "address": "出雲市平田町2950-1", "x": 132.82205200, "y": 35.44259700, "label": "平田中" }, "geometry": { "type": "Point", "coordinates": [ 132.82205200, 35.44259700 ] } }
]
}
